NO,名称,所在地,緯度,経度
1,練馬区役所,練馬区豊玉北6-12-1,35.73578858,139.6515339
2,石神井庁舎,練馬区石神井町3-30-26,35.7434728,139.6025527
3,光が丘区民センター,練馬区光が丘2-9-6,35.75953387,139.6292969
4,関区民センター,練馬区関町北1-7-2,35.72463255,139.5775053
5,勤労福祉会館,練馬区東大泉5-40-36,35.7482275,139.5873725
6,平和台体育館,練馬区平和台2-12-5,35.75942687,139.6614234
7,大泉学園町体育館,練馬区大泉学園町5-14-24,35.76528508,139.5840967
